{
"type": "FeatureCollection",
"features": [
{ "type": "Feature", "properties": { "index": 0, "Name": "Lloyd's IGA Store", "Award ($)": 5081.0, "% of cost": 30.0, "Electricity Savings (kWh/yr)": 38955.0, "Natural Gas Savings (kBtus/yr)": null, "Greenhouse Gas Emission Reduction (MtCO2e)": 29.0 }, "geometry": { "type": "Point", "coordinates": [ -75.1451736, 38.7684136 ] } },
{ "type": "Feature", "properties": { "index": 1, "Name": "Abbott's Mill Nature Center of Delaware Nature Society", "Award ($)": 880.0, "% of cost": 15.0, "Electricity Savings (kWh/yr)": 27134.0, "Natural Gas Savings (kBtus/yr)": null, "Greenhouse Gas Emission Reduction (MtCO2e)": 20.2 }, "geometry": { "type": "Point", "coordinates": [ -75.47659, 38.88698 ] } },
{ "type": "Feature", "properties": { "index": 2, "Name": "Five Below, Inc. #102", "Award ($)": 1752.0, "% of cost": 30.0, "Electricity Savings (kWh/yr)": 36538.0, "Natural Gas Savings (kBtus/yr)": null, "Greenhouse Gas Emission Reduction (MtCO2e)": 25.8 }, "geometry": { "type": "Point", "coordinates": [ -75.54968, 39.8043 ] } },
{ "type": "Feature", "properties": { "index": 3, "Name": "Wyoming United Methodist Church", "Award ($)": 1343.0, "% of cost": 30.0, "Electricity Savings (kWh/yr)": 9010.0, "Natural Gas Savings (kBtus/yr)": null, "Greenhouse Gas Emission Reduction (MtCO2e)": 6.4 }, "geometry": { "type": "Point", "coordinates": [ -75.5535798, 39.1265686 ] } },
{ "type": "Feature", "properties": { "index": 4, "Name": "K&S Garage, Inc.", "Award ($)": 1840.0, "% of cost": 19.0, "Electricity Savings (kWh/yr)": 21112.0, "Natural Gas Savings (kBtus/yr)": null, "Greenhouse Gas Emission Reduction (MtCO2e)": 14.9 }, "geometry": { "type": "Point", "coordinates": [ -75.7443401, 39.6787033 ] } },
{ "type": "Feature", "properties": { "index": 5, "Name": "Lombardy Medical Center, Inc.", "Award ($)": 13376.0, "% of cost": 30.0, "Electricity Savings (kWh/yr)": 315333.0, "Natural Gas Savings (kBtus/yr)": null, "Greenhouse Gas Emission Reduction (MtCO2e)": 223.0 }, "geometry": { "type": "Point", "coordinates": [ -75.5377234, 39.7836678 ] } },
{ "type": "Feature", "properties": { "index": 6, "Name": "WSFS Bank", "Award ($)": 1850.0, "% of cost": 30.0, "Electricity Savings (kWh/yr)": 15806.0, "Natural Gas Savings (kBtus/yr)": null, "Greenhouse Gas Emission Reduction (MtCO2e)": 11.2 }, "geometry": { "type": "Point", "coordinates": [ -75.54529, 39.78828 ] } },
{ "type": "Feature", "properties": { "index": 7, "Name": "Commons Boulevard, L.P.", "Award ($)": 15634.0, "% of cost": 30.0, "Electricity Savings (kWh/yr)": 190633.0, "Natural Gas Savings (kBtus/yr)": null, "Greenhouse Gas Emission Reduction (MtCO2e)": 135.0 }, "geometry": { "type": "Point", "coordinates": [ -75.5954379, 39.696978 ] } },
{ "type": "Feature", "properties": { "index": 8, "Name": "Bank of America - Phase 2 of 3", "Award ($)": 77623.0, "% of cost": 30.0, "Electricity Savings (kWh/yr)": 654460.0, "Natural Gas Savings (kBtus/yr)": null, "Greenhouse Gas Emission Reduction (MtCO2e)": 463.0 }, "geometry": { "type": "Point", "coordinates": [ -75.7456577, 39.7140948 ] } },
{ "type": "Feature", "properties": { "index": 9, "Name": "Rack Room Shoes", "Award ($)": 1823.0, "% of cost": 30.0, "Electricity Savings (kWh/yr)": 28860.0, "Natural Gas Savings (kBtus/yr)": null, "Greenhouse Gas Emission Reduction (MtCO2e)": 21.5 }, "geometry": { "type": "Point", "coordinates": [ -75.1103422, 38.7145313 ] } },
{ "type": "Feature", "properties": { "index": 10, "Name": "DEStorage.com", "Award ($)": 1122.0, "% of cost": 30.0, "Electricity Savings (kWh/yr)": 7889.0, "Natural Gas Savings (kBtus/yr)": null, "Greenhouse Gas Emission Reduction (MtCO2e)": 5.6 }, "geometry": { "type": "Point", "coordinates": [ -75.5886827, 38.6948649 ] } },
{ "type": "Feature", "properties": { "index": 11, "Name": "Advance Auto Parts #1916", "Award ($)": 1271.0, "% of cost": 30.0, "Electricity Savings (kWh/yr)": 16052.0, "Natural Gas Savings (kBtus/yr)": null, "Greenhouse Gas Emission Reduction (MtCO2e)": 11.4 }, "geometry": { "type": "Point", "coordinates": [ -75.4405581, 38.9178499 ] } },
{ "type": "Feature", "properties": { "index": 12, "Name": "Advance Auto Parts #7103", "Award ($)": 1538.0, "% of cost": 30.0, "Electricity Savings (kWh/yr)": 24110.0, "Natural Gas Savings (kBtus/yr)": null, "Greenhouse Gas Emission Reduction (MtCO2e)": 15.7 }, "geometry": { "type": "Point", "coordinates": [ -75.69995, 39.70026 ] } },
{ "type": "Feature", "properties": { "index": 13, "Name": "Advance Auto Parts #7232", "Award ($)": 1876.0, "% of cost": 30.0, "Electricity Savings (kWh/yr)": 23696.0, "Natural Gas Savings (kBtus/yr)": null, "Greenhouse Gas Emission Reduction (MtCO2e)": 12.6 }, "geometry": { "type": "Point", "coordinates": [ -75.559, 38.45911 ] } },
{ "type": "Feature", "properties": { "index": 14, "Name": "Advance Auto Parts #6261", "Award ($)": 1580.0, "% of cost": 30.0, "Electricity Savings (kWh/yr)": 20663.0, "Natural Gas Savings (kBtus/yr)": null, "Greenhouse Gas Emission Reduction (MtCO2e)": 13.1 }, "geometry": { "type": "Point", "coordinates": [ -75.7272204, 39.6685157 ] } },
{ "type": "Feature", "properties": { "index": 15, "Name": "Advance Auto Parts #8152", "Award ($)": 1592.0, "% of cost": 30.0, "Electricity Savings (kWh/yr)": 20582.0, "Natural Gas Savings (kBtus/yr)": null, "Greenhouse Gas Emission Reduction (MtCO2e)": 14.6 }, "geometry": { "type": "Point", "coordinates": [ -75.29616, 38.58551 ] } },
{ "type": "Feature", "properties": { "index": 16, "Name": "BPG Office Partners XVIII", "Award ($)": 3806.0, "% of cost": 30.0, "Electricity Savings (kWh/yr)": 57798.0, "Natural Gas Savings (kBtus/yr)": null, "Greenhouse Gas Emission Reduction (MtCO2e)": 43.0 }, "geometry": { "type": "Point", "coordinates": [ -75.70431, 39.65725 ] } },
{ "type": "Feature", "properties": { "index": 17, "Name": "Delstar Technologies, Inc.", "Award ($)": 31392.0, "% of cost": 20.0, "Electricity Savings (kWh/yr)": 717523.0, "Natural Gas Savings (kBtus/yr)": null, "Greenhouse Gas Emission Reduction (MtCO2e)": 507.0 }, "geometry": { "type": "Point", "coordinates": [ -75.7211259, 39.4454343 ] } },
{ "type": "Feature", "properties": { "index": 18, "Name": "Limestone Valley Enterprises LLC", "Award ($)": 14329.0, "% of cost": 30.0, "Electricity Savings (kWh/yr)": 178186.0, "Natural Gas Savings (kBtus/yr)": null, "Greenhouse Gas Emission Reduction (MtCO2e)": 126.0 }, "geometry": { "type": "Point", "coordinates": [ -75.7115528, 39.7753465 ] } },
{ "type": "Feature", "properties": { "index": 19, "Name": "Iron Mountain IM02626 (52-563800-02)", "Award ($)": 21054.0, "% of cost": 30.0, "Electricity Savings (kWh/yr)": 81240.0, "Natural Gas Savings (kBtus/yr)": null, "Greenhouse Gas Emission Reduction (MtCO2e)": 57.4 }, "geometry": { "type": "Point", "coordinates": [ -75.5583599, 39.67423 ] } },
{ "type": "Feature", "properties": { "index": 20, "Name": "1007 Market Condominium Association (BPG)", "Award ($)": 262415.0, "% of cost": 6.0, "Electricity Savings (kWh/yr)": 1228041.0, "Natural Gas Savings (kBtus/yr)": 23010000.0, "Greenhouse Gas Emission Reduction (MtCO2e)": 5933.0 }, "geometry": { "type": "Point", "coordinates": [ -75.54817, 39.74627 ] } },
{ "type": "Feature", "properties": { "index": 21, "Name": "Storage Rentals of America / FME Lighting LLC", "Award ($)": 6534.0, "% of cost": 18.0, "Electricity Savings (kWh/yr)": 67950.0, "Natural Gas Savings (kBtus/yr)": null, "Greenhouse Gas Emission Reduction (MtCO2e)": 50.6 }, "geometry": { "type": "Point", "coordinates": [ -75.6069947, 39.7283992 ] } },
{ "type": "Feature", "properties": { "index": 22, "Name": "Hockessin Liquors", "Award ($)": 1380.0, "% of cost": 24.0, "Electricity Savings (kWh/yr)": 7352.0, "Natural Gas Savings (kBtus/yr)": null, "Greenhouse Gas Emission Reduction (MtCO2e)": 5.5 }, "geometry": { "type": "Point", "coordinates": [ -75.7094586, 39.7940043 ] } },
{ "type": "Feature", "properties": { "index": 23, "Name": "St. Stephen's Lutheran Church", "Award ($)": 1500.0, "% of cost": 50.0, "Electricity Savings (kWh/yr)": null, "Natural Gas Savings (kBtus/yr)": null, "Greenhouse Gas Emission Reduction (MtCO2e)": null }, "geometry": { "type": "Point", "coordinates": [ -75.560692, 39.75441 ] } },
{ "type": "Feature", "properties": { "index": 24, "Name": "Goose Creek", "Award ($)": 1250.0, "% of cost": 21.0, "Electricity Savings (kWh/yr)": 73595.0, "Natural Gas Savings (kBtus/yr)": null, "Greenhouse Gas Emission Reduction (MtCO2e)": 52.0 }, "geometry": { "type": "Point", "coordinates": [ -75.5685109, 39.0070321 ] } },
{ "type": "Feature", "properties": { "index": 25, "Name": "Amtrak", "Award ($)": 19100.0, "% of cost": 21.0, "Electricity Savings (kWh/yr)": 710362.0, "Natural Gas Savings (kBtus/yr)": null, "Greenhouse Gas Emission Reduction (MtCO2e)": 502.3 }, "geometry": { "type": "Point", "coordinates": [ -75.52463, 39.74262 ] } },
{ "type": "Feature", "properties": { "index": 26, "Name": "Storage Rentals of America / FME Lighting LLC", "Award ($)": 15944.0, "% of cost": 23.0, "Electricity Savings (kWh/yr)": 127879.0, "Natural Gas Savings (kBtus/yr)": null, "Greenhouse Gas Emission Reduction (MtCO2e)": 106.0 }, "geometry": { "type": "Point", "coordinates": [ -75.7212486, 39.6854624 ] } },
{ "type": "Feature", "properties": { "index": 27, "Name": "Storage Rental of America / FME Lighting LLC", "Award ($)": 6351.0, "% of cost": 29.0, "Electricity Savings (kWh/yr)": 37322.0, "Natural Gas Savings (kBtus/yr)": null, "Greenhouse Gas Emission Reduction (MtCO2e)": 109.0 }, "geometry": { "type": "Point", "coordinates": [ -75.648032, 39.6138413 ] } },
{ "type": "Feature", "properties": { "index": 28, "Name": "Storage Rentals of America / FME Lighting LLC", "Award ($)": 14177.0, "% of cost": 22.0, "Electricity Savings (kWh/yr)": 140714.0, "Natural Gas Savings (kBtus/yr)": null, "Greenhouse Gas Emission Reduction (MtCO2e)": 96.7 }, "geometry": { "type": "Point", "coordinates": [ -75.7473591, 39.6187968 ] } },
{ "type": "Feature", "properties": { "index": 29, "Name": "Storage Rentals of America / FME Lighting LLC", "Award ($)": 3893.0, "% of cost": 27.0, "Electricity Savings (kWh/yr)": 21762.0, "Natural Gas Savings (kBtus/yr)": null, "Greenhouse Gas Emission Reduction (MtCO2e)": 15.8 }, "geometry": { "type": "Point", "coordinates": [ -75.6176547, 39.7313647 ] } },
{ "type": "Feature", "properties": { "index": 30, "Name": "PTM Manufacturing", "Award ($)": 9439.0, "% of cost": 30.0, "Electricity Savings (kWh/yr)": 271573.0, "Natural Gas Savings (kBtus/yr)": null, "Greenhouse Gas Emission Reduction (MtCO2e)": 192.0 }, "geometry": { "type": "Point", "coordinates": [ -75.598074, 39.6643908 ] } },
{ "type": "Feature", "properties": { "index": 31, "Name": "Albertsons Companies - Site 817", "Award ($)": 11340.0, "% of cost": 18.0, "Electricity Savings (kWh/yr)": 147059.0, "Natural Gas Savings (kBtus/yr)": null, "Greenhouse Gas Emission Reduction (MtCO2e)": 104.0 }, "geometry": { "type": "Point", "coordinates": [ -75.7119802, 39.6065277 ] } },
{ "type": "Feature", "properties": { "index": 32, "Name": "Albertsons Companies - Site 874", "Award ($)": 12032.0, "% of cost": 29.0, "Electricity Savings (kWh/yr)": 170937.0, "Natural Gas Savings (kBtus/yr)": null, "Greenhouse Gas Emission Reduction (MtCO2e)": 121.0 }, "geometry": { "type": "Point", "coordinates": [ -75.545047, 39.7877886 ] } },
{ "type": "Feature", "properties": { "index": 33, "Name": "Wyoming United Methodist Church", "Award ($)": 1674.0, "% of cost": 30.0, "Electricity Savings (kWh/yr)": 11081.0, "Natural Gas Savings (kBtus/yr)": null, "Greenhouse Gas Emission Reduction (MtCO2e)": 7.8 }, "geometry": { "type": "Point", "coordinates": [ -75.5535798, 39.1265686 ] } },
{ "type": "Feature", "properties": { "index": 34, "Name": "DHSS - Adams SSC", "Award ($)": 31049.0, "% of cost": 30.0, "Electricity Savings (kWh/yr)": 1153741.0, "Natural Gas Savings (kBtus/yr)": null, "Greenhouse Gas Emission Reduction (MtCO2e)": 816.0 }, "geometry": { "type": "Point", "coordinates": [ -75.37909, 38.66586 ] } },
{ "type": "Feature", "properties": { "index": 35, "Name": "DHSS - Hudson SSC", "Award ($)": 16489.0, "% of cost": 30.0, "Electricity Savings (kWh/yr)": 802777.0, "Natural Gas Savings (kBtus/yr)": null, "Greenhouse Gas Emission Reduction (MtCO2e)": 567.7 }, "geometry": { "type": "Point", "coordinates": [ -75.7342199, 39.68427 ] } },
{ "type": "Feature", "properties": { "index": 36, "Name": "DHSS - Porter", "Award ($)": 3769.0, "% of cost": 30.0, "Electricity Savings (kWh/yr)": 163265.0, "Natural Gas Savings (kBtus/yr)": null, "Greenhouse Gas Emission Reduction (MtCO2e)": 115.5 }, "geometry": { "type": "Point", "coordinates": [ -75.55386, 39.74544 ] } },
{ "type": "Feature", "properties": { "index": 37, "Name": "DHSS - Pyle SSC", "Award ($)": 7026.0, "% of cost": 24.0, "Electricity Savings (kWh/yr)": 44525.0, "Natural Gas Savings (kBtus/yr)": null, "Greenhouse Gas Emission Reduction (MtCO2e)": 31.5 }, "geometry": { "type": "Point", "coordinates": [ -75.18229, 38.51375 ] } },
{ "type": "Feature", "properties": { "index": 38, "Name": "DHSS - Shipley SSC", "Award ($)": 7298.0, "% of cost": 28.0, "Electricity Savings (kWh/yr)": 100533.0, "Natural Gas Savings (kBtus/yr)": null, "Greenhouse Gas Emission Reduction (MtCO2e)": 71.1 }, "geometry": { "type": "Point", "coordinates": [ -75.6135456, 38.6531079 ] } },
{ "type": "Feature", "properties": { "index": 39, "Name": "DHSS - DHCI Campus", "Award ($)": 66527.0, "% of cost": 24.0, "Electricity Savings (kWh/yr)": 602617.0, "Natural Gas Savings (kBtus/yr)": null, "Greenhouse Gas Emission Reduction (MtCO2e)": 426.0 }, "geometry": { "type": "Point", "coordinates": [ -75.6001299, 39.29101 ] } },
{ "type": "Feature", "properties": { "index": 40, "Name": "DHSS - GBHC Campus", "Award ($)": 2000.0, "% of cost": 20.0, "Electricity Savings (kWh/yr)": 23617.0, "Natural Gas Savings (kBtus/yr)": null, "Greenhouse Gas Emission Reduction (MtCO2e)": 16.7 }, "geometry": { "type": "Point", "coordinates": [ -75.58636, 39.57071 ] } },
{ "type": "Feature", "properties": { "index": 41, "Name": "DHSS - Holloway Campus", "Award ($)": 163039.0, "% of cost": 28.0, "Electricity Savings (kWh/yr)": 1318506.0, "Natural Gas Savings (kBtus/yr)": null, "Greenhouse Gas Emission Reduction (MtCO2e)": 932.0 }, "geometry": { "type": "Point", "coordinates": [ -75.57605, 39.69774 ] } },
{ "type": "Feature", "properties": { "index": 42, "Name": "Bank of America Christiana Interior CC I & CC I-II", "Award ($)": 27513.0, "% of cost": 30.0, "Electricity Savings (kWh/yr)": 166530.0, "Natural Gas Savings (kBtus/yr)": null, "Greenhouse Gas Emission Reduction (MtCO2e)": 117.8 }, "geometry": { "type": "Point", "coordinates": [ -75.6757107, 39.6834376 ] } },
{ "type": "Feature", "properties": { "index": 43, "Name": "Bank of America Christiana Interior CC III", "Award ($)": 51480.0, "% of cost": 28.0, "Electricity Savings (kWh/yr)": 783681.0, "Natural Gas Savings (kBtus/yr)": null, "Greenhouse Gas Emission Reduction (MtCO2e)": 554.2 }, "geometry": { "type": "Point", "coordinates": [ -75.6757107, 39.6834376 ] } },
{ "type": "Feature", "properties": { "index": 44, "Name": "Bank of America Christiana Interior CC IV & CC III-IV", "Award ($)": 21083.0, "% of cost": 19.0, "Electricity Savings (kWh/yr)": 378618.0, "Natural Gas Savings (kBtus/yr)": null, "Greenhouse Gas Emission Reduction (MtCO2e)": 267.7 }, "geometry": { "type": "Point", "coordinates": [ -75.6757107, 39.6834376 ] } },
{ "type": "Feature", "properties": { "index": 45, "Name": "Delaware Army National Guard", "Award ($)": 6227.0, "% of cost": 30.0, "Electricity Savings (kWh/yr)": 43114.0, "Natural Gas Savings (kBtus/yr)": null, "Greenhouse Gas Emission Reduction (MtCO2e)": 30.5 }, "geometry": { "type": "Point", "coordinates": [ -75.6124114, 39.6340225 ] } },
{ "type": "Feature", "properties": { "index": 46, "Name": "Delaware Army National Guard", "Award ($)": 3076.0, "% of cost": 17.0, "Electricity Savings (kWh/yr)": 27642.0, "Natural Gas Savings (kBtus/yr)": null, "Greenhouse Gas Emission Reduction (MtCO2e)": 19.5 }, "geometry": { "type": "Point", "coordinates": [ -75.623091, 38.661885 ] } },
{ "type": "Feature", "properties": { "index": 47, "Name": "Pet Supermarket / PetValu #5305", "Award ($)": 1837.0, "% of cost": 29.0, "Electricity Savings (kWh/yr)": 28918.0, "Natural Gas Savings (kBtus/yr)": null, "Greenhouse Gas Emission Reduction (MtCO2e)": 20.4 }, "geometry": { "type": "Point", "coordinates": [ -75.71066, 39.77436 ] } },
{ "type": "Feature", "properties": { "index": 48, "Name": "Food Lion #1294", "Award ($)": 13760.0, "% of cost": 18.0, "Electricity Savings (kWh/yr)": 177470.0, "Natural Gas Savings (kBtus/yr)": null, "Greenhouse Gas Emission Reduction (MtCO2e)": 125.5 }, "geometry": { "type": "Point", "coordinates": [ -75.4324698, 38.9315382 ] } },
{ "type": "Feature", "properties": { "index": 49, "Name": "The Lorelton Foundation (Assisted Living)", "Award ($)": 30977.0, "% of cost": 5.0, "Electricity Savings (kWh/yr)": 239659.0, "Natural Gas Savings (kBtus/yr)": 4443000.0, "Greenhouse Gas Emission Reduction (MtCO2e)": 192.0 }, "geometry": { "type": "Point", "coordinates": [ -75.5760203, 39.7501179 ] } },
{ "type": "Feature", "properties": { "index": 50, "Name": "Odyssey Charter School", "Award ($)": 66832.0, "% of cost": 30.0, "Electricity Savings (kWh/yr)": 1126965.0, "Natural Gas Savings (kBtus/yr)": null, "Greenhouse Gas Emission Reduction (MtCO2e)": 797.0 }, "geometry": { "type": "Point", "coordinates": [ -75.597154, 39.759041 ] } },
{ "type": "Feature", "properties": { "index": 51, "Name": "DHSS - Stockley Campus", "Award ($)": 77174.0, "% of cost": 21.0, "Electricity Savings (kWh/yr)": 412492.0, "Natural Gas Savings (kBtus/yr)": null, "Greenhouse Gas Emission Reduction (MtCO2e)": 219.7 }, "geometry": { "type": "Point", "coordinates": [ -75.3210766, 38.6242996 ] } },
{ "type": "Feature", "properties": { "index": 52, "Name": "1 Righter LLC (BPG)", "Award ($)": 1276.0, "% of cost": 30.0, "Electricity Savings (kWh/yr)": 16133.0, "Natural Gas Savings (kBtus/yr)": null, "Greenhouse Gas Emission Reduction (MtCO2e)": 11.4 }, "geometry": { "type": "Point", "coordinates": [ -75.55077, 39.81453 ] } },
{ "type": "Feature", "properties": { "index": 53, "Name": "2 Righter LLC (BPG)", "Award ($)": 1139.0, "% of cost": 30.0, "Electricity Savings (kWh/yr)": 14235.0, "Natural Gas Savings (kBtus/yr)": null, "Greenhouse Gas Emission Reduction (MtCO2e)": 10.1 }, "geometry": { "type": "Point", "coordinates": [ -75.55103, 39.8125799 ] } },
{ "type": "Feature", "properties": { "index": 54, "Name": "Verizon", "Award ($)": 20107.0, "% of cost": 10.0, "Electricity Savings (kWh/yr)": 439338.0, "Natural Gas Savings (kBtus/yr)": null, "Greenhouse Gas Emission Reduction (MtCO2e)": 310.7 }, "geometry": { "type": "Point", "coordinates": [ -75.55087, 39.7460499 ] } },
{ "type": "Feature", "properties": { "index": 55, "Name": "Verizon", "Award ($)": 6429.0, "% of cost": 10.0, "Electricity Savings (kWh/yr)": 324574.0, "Natural Gas Savings (kBtus/yr)": null, "Greenhouse Gas Emission Reduction (MtCO2e)": 229.5 }, "geometry": { "type": "Point", "coordinates": [ -75.52544, 39.76279 ] } },
{ "type": "Feature", "properties": { "index": 56, "Name": "Hartly Volunteer Fire Company", "Award ($)": 3600.0, "% of cost": 15.0, "Electricity Savings (kWh/yr)": 71110.0, "Natural Gas Savings (kBtus/yr)": null, "Greenhouse Gas Emission Reduction (MtCO2e)": 50.3 }, "geometry": { "type": "Point", "coordinates": [ -75.7127071, 39.1693132 ] } },
{ "type": "Feature", "properties": { "index": 57, "Name": "2/3 Mill Road LLC (BPG)", "Award ($)": 1581.0, "% of cost": 30.0, "Electricity Savings (kWh/yr)": 13940.0, "Natural Gas Savings (kBtus/yr)": null, "Greenhouse Gas Emission Reduction (MtCO2e)": 9.9 }, "geometry": { "type": "Point", "coordinates": [ -75.5576008, 39.7638361 ] } },
{ "type": "Feature", "properties": { "index": 58, "Name": "MPC Investments, LLC.", "Award ($)": 4653.0, "% of cost": 25.0, "Electricity Savings (kWh/yr)": 45911.0, "Natural Gas Savings (kBtus/yr)": null, "Greenhouse Gas Emission Reduction (MtCO2e)": 32.5 }, "geometry": { "type": "Point", "coordinates": [ -75.7005755, 39.685521 ] } },
{ "type": "Feature", "properties": { "index": 59, "Name": "Blue Hen Hotel LLC", "Award ($)": 3535.0, "% of cost": 30.0, "Electricity Savings (kWh/yr)": 74784.0, "Natural Gas Savings (kBtus/yr)": null, "Greenhouse Gas Emission Reduction (MtCO2e)": 52.9 }, "geometry": { "type": "Point", "coordinates": [ -75.75921, 39.68867 ] } },
{ "type": "Feature", "properties": { "index": 60, "Name": "Hockessin Animal Hospital", "Award ($)": 5183.0, "% of cost": 28.0, "Electricity Savings (kWh/yr)": 29821.0, "Natural Gas Savings (kBtus/yr)": null, "Greenhouse Gas Emission Reduction (MtCO2e)": 21.1 }, "geometry": { "type": "Point", "coordinates": [ -75.69429, 39.78966 ] } },
{ "type": "Feature", "properties": { "index": 61, "Name": "Giant Food Inc. #388", "Award ($)": 8040.0, "% of cost": 14.0, "Electricity Savings (kWh/yr)": 110334.0, "Natural Gas Savings (kBtus/yr)": null, "Greenhouse Gas Emission Reduction (MtCO2e)": 78.0 }, "geometry": { "type": "Point", "coordinates": [ -75.6887564, 39.4546447 ] } },
{ "type": "Feature", "properties": { "index": 62, "Name": "Giant Food Inc. #386", "Award ($)": 8800.0, "% of cost": 15.0, "Electricity Savings (kWh/yr)": 94836.0, "Natural Gas Savings (kBtus/yr)": null, "Greenhouse Gas Emission Reduction (MtCO2e)": 67.1 }, "geometry": { "type": "Point", "coordinates": [ -75.6547206, 39.6327156 ] } },
{ "type": "Feature", "properties": { "index": 63, "Name": "Donaldson Electric Inc", "Award ($)": 2360.0, "% of cost": 24.0, "Electricity Savings (kWh/yr)": 26964.0, "Natural Gas Savings (kBtus/yr)": null, "Greenhouse Gas Emission Reduction (MtCO2e)": 19.1 }, "geometry": { "type": "Point", "coordinates": [ -75.5816212, 39.7208523 ] } },
{ "type": "Feature", "properties": { "index": 64, "Name": "Bethany Bay Homeowners Association", "Award ($)": 1280.0, "% of cost": 29.0, "Electricity Savings (kWh/yr)": 2637.0, "Natural Gas Savings (kBtus/yr)": null, "Greenhouse Gas Emission Reduction (MtCO2e)": 1.9 }, "geometry": { "type": "Point", "coordinates": [ -75.1024069, 38.5673316 ] } },
{ "type": "Feature", "properties": { "index": 65, "Name": "Albertsons Acme #7816", "Award ($)": 14290.0, "% of cost": 25.0, "Electricity Savings (kWh/yr)": 295000.0, "Natural Gas Savings (kBtus/yr)": null, "Greenhouse Gas Emission Reduction (MtCO2e)": 208.6 }, "geometry": { "type": "Point", "coordinates": [ -75.6976904, 39.4484914 ] } },
{ "type": "Feature", "properties": { "index": 66, "Name": "Brothers X2 LLC", "Award ($)": 1050.0, "% of cost": 29.0, "Electricity Savings (kWh/yr)": 5408.0, "Natural Gas Savings (kBtus/yr)": null, "Greenhouse Gas Emission Reduction (MtCO2e)": 3.8 }, "geometry": { "type": "Point", "coordinates": [ -75.727291, 39.6634248 ] } },
{ "type": "Feature", "properties": { "index": 67, "Name": "Cedar Realty Trust - Christina Crossing LLC", "Award ($)": 15300.0, "% of cost": 21.0, "Electricity Savings (kWh/yr)": 196650.0, "Natural Gas Savings (kBtus/yr)": null, "Greenhouse Gas Emission Reduction (MtCO2e)": 139.0 }, "geometry": { "type": "Point", "coordinates": [ -75.5546923, 39.7312744 ] } },
{ "type": "Feature", "properties": { "index": 68, "Name": "Dick's Sporting Goods #3036 - Golf Galaxy", "Award ($)": 6400.0, "% of cost": 30.0, "Electricity Savings (kWh/yr)": 87500.0, "Natural Gas Savings (kBtus/yr)": null, "Greenhouse Gas Emission Reduction (MtCO2e)": 61.9 }, "geometry": { "type": "Point", "coordinates": [ -75.6615674, 39.6920547 ] } },
{ "type": "Feature", "properties": { "index": 69, "Name": "Dick's Sporting Goods #34", "Award ($)": 16800.0, "% of cost": 30.0, "Electricity Savings (kWh/yr)": 197941.0, "Natural Gas Savings (kBtus/yr)": null, "Greenhouse Gas Emission Reduction (MtCO2e)": 140.0 }, "geometry": { "type": "Point", "coordinates": [ -75.7485664, 39.6851761 ] } },
{ "type": "Feature", "properties": { "index": 70, "Name": "Dick's Sporting Goods #33", "Award ($)": 17800.0, "% of cost": 30.0, "Electricity Savings (kWh/yr)": 243359.0, "Natural Gas Savings (kBtus/yr)": null, "Greenhouse Gas Emission Reduction (MtCO2e)": 172.1 }, "geometry": { "type": "Point", "coordinates": [ -75.5394971, 39.8298568 ] } }
]
}
